# Time (s),Altitude (m),Vertical velocity (m/s),Vertical acceleration (m/s²),Total velocity (m/s),Total acceleration (m/s²),Position East of launch (m),Position North of launch (m),Lateral distance (m),Lateral direction (°),Lateral velocity (m/s),Lateral acceleration (m/s²),Latitude (°),Longitude (°),Gravitational acceleration (m/s²),Angle of attack (°),Roll rate (°/s),Pitch rate (°/s),Yaw rate (°/s),Mass (g),Propellant mass (g),Longitudinal moment of inertia (kg·m²),Rotational moment of inertia (kg·m²),CP location (mm),CG location (mm),Stability margin calibers (?),Mach number (?),Reynolds number (?),Thrust (N),Drag force (N),Drag coefficient (?),Axial drag coefficient (?),Friction drag coefficient (?),Pressure drag coefficient (?),Base drag coefficient (?),Normal force coefficient (?),Pitch moment coefficient (?),Yaw moment coefficient (?),Side force coefficient (?),Roll moment coefficient (?),Roll forcing coefficient (?),Roll damping coefficient (?),Pitch damping coefficient (?),Reference length (mm),Reference area (cm²),Vertical orientation (zenith) (°),Lateral orientation (azimuth) (°),Wind velocity (m/s),Air temperature (°C),Air pressure (mbar),Speed of sound (m/s),Simulation time step (s),Computation time (s)
0,0,0,-8.336,0,8.336,0,0,0,0,0,0,45,0,9.8062,90,0,0,0,12207,2521.3,5.7227,0.0369,NaN,1630.6,NaN,0.0057206,356080,17.946,0,0.71196,0,0.5268,0.065148,0.12,NaN,NaN,NaN,NaN,NaN,NaN,NaN,NaN,140,153.94,90,0,NaN,15,1013.2,340.39,0.01,0.0053916
0.01,0,0,-5.3955,0,5.3955,0,0,0,0,0,0,45,0,9.8062,90,0,0,0,12207,2521.3,5.7227,0.0369,NaN,1630.6,NaN,0.0056781,353438,53.839,0,0.71283,0,0.52767,0.065148,0.12,NaN,NaN,NaN,NaN,NaN,NaN,NaN,NaN,140,153.94,90,0,NaN,15,1013.2,340.39,0.01,0.0070111
0.02,0,0,-2.454,0,2.454,0,0,0,0,0,0,45,0,9.8062,90,0,0,0,12205,2519.4,5.7221,0.036899,NaN,1630.5,NaN,0.0056357,350797,89.731,0,0.7137,0,0.52855,0.065148,0.12,NaN,NaN,NaN,NaN,NaN,NaN,NaN,NaN,140,153.94,90,0,NaN,15,1013.2,340.39,0.01,0.0077805
0.03,0,0,0.48853,0,0.48853,0,0,0,0,0,0,45,0,9.8062,90,0,0,0,12203,2517.5,5.7215,0.036897,NaN,1630.4,NaN,0.0055933,348156,125.62,0,0.71459,0,0.52943,0.065148,0.12,NaN,NaN,NaN,NaN,NaN,NaN,NaN,NaN,140,153.94,90,0,NaN,15,1013.2,340.39,0.01,0.0087573
0.04,2.4479e-5,0.0048985,3.4319,0.0048985,3.4319,0,0,0,0,0,0,45,0,9.8062,89.851,0,0,0,12201,2515.7,5.7209,0.036896,NaN,1630.4,NaN,0.0055508,345516,161.52,0,0.71548,3.1298e-8,0.53033,0.065148,0.12,NaN,NaN,NaN,NaN,NaN,NaN,NaN,NaN,140,153.94,90,0,NaN,15,1013.2,340.39,0.01,0.0095548
0.05,2.4513e-4,0.039235,6.3762,0.039235,6.3762,0,0,0,0,0,0,45,0,9.8062,88.801,0,0,0,12199,2513.8,5.7203,0.036895,NaN,1630.3,NaN,0.0055096,342949,197.41,5.4027e-7,0.71636,1.6292e-5,0.53121,0.065148,0.12,NaN,NaN,NaN,NaN,NaN,NaN,NaN,NaN,140,153.94,90,0,NaN,15,1013.2,340.39,0.01,0.017894
0.06,9.5637e-4,0.10302,9.3214,0.10302,9.3214,0,0,0,0,0,0,45,0,9.8062,86.836,0,0,0,12197,2511.9,5.7197,0.036893,NaN,1630.3,NaN,0.005484,341355,233.3,9.6448e-6,0.71691,2.9356e-4,0.53176,0.065148,0.12,NaN,NaN,NaN,NaN,NaN,NaN,NaN,NaN,140,153.94,90,0,NaN,15,1013.2,340.39,0.01,0.019235
0.07,0.0024527,0.19626,12.268,0.19626,12.268,0,0,0,0,0,0,45,0,9.8062,83.953,0,0,0,12195,2510,5.7191,0.036892,NaN,1630.2,NaN,0.0054733,340691,269.19,6.5053e-5,0.71714,0.0019877,0.53199,0.065148,0.12,NaN,NaN,NaN,NaN,NaN,NaN,NaN,NaN,140,153.94,90,0,NaN,15,1013.2,340.39,0.01,0.02029
0.08,0.0050288,0.31896,15.215,0.31896,15.215,0,0,0,0,0,0,45,0,9.8062,80.174,0,0,0,12193,2508.1,5.7185,0.036891,NaN,1630.1,NaN,0.0054907,341770,305.09,2.6916e-4,0.71677,0.0081726,0.53161,0.065148,0.12,NaN,NaN,NaN,NaN,NaN,NaN,NaN,NaN,140,153.94,90,0,NaN,15,1013.2,340.39,0.01,0.021368
0.09,0.0089792,0.47114,18.162,0.47114,18.162,0,0,0,0,0,0,45,0,9.8062,75.566,0,0,0,12191,2506.3,5.7179,0.036889,NaN,1630.1,NaN,0.0055526,345626,340.98,8.2508e-4,0.71544,0.024496,0.53029,0.065148,0.12,NaN,NaN,NaN,NaN,NaN,NaN,NaN,NaN,140,153.94,90,0,NaN,15,1013.2,340.39,0.01,0.022553
0.1,0.014599,0.6528,21.111,0.6528,21.111,0,0,0,0,0,0,45,0,9.8062,70.261,0,0,0,12190,2504.4,5.7172,0.036888,NaN,1630,NaN,0.0056782,353446,376.87,0.0020579,0.71282,0.058424,0.52767,0.065148,0.12,NaN,NaN,NaN,NaN,NaN,NaN,NaN,NaN,140,153.94,90,0,NaN,15,1013.2,340.39,0.01,0.023231
0.11,0.022183,0.86395,24.061,0.86395,24.061,0,0,0,0,0,0,45,0,9.8062,64.836,0,0,0,12188,2502.5,5.7166,0.036887,NaN,1629.9,NaN,0.005969,371542,412.76,0.0043464,0.70704,0.11167,0.52189,0.065148,0.12,NaN,NaN,NaN,NaN,NaN,NaN,NaN,NaN,140,153.94,90,0,NaN,15,1013.2,340.39,0.01,0.030376
0.12,0.032025,1.1046,27.011,1.1046,27.011,0,0,0,0,0,0,45,0,9.8062,59.277,0,0,0,12186,2500.6,5.716,0.036885,NaN,1629.9,NaN,0.0063519,395375,448.66,0.0081846,0.69998,0.18569,0.51483,0.065149,0.12001,NaN,NaN,NaN,NaN,NaN,NaN,NaN,NaN,140,153.94,90,0,NaN,15,1013.2,340.39,0.01,0.031012
0.13,0.044422,1.3748,29.962,1.3748,29.962,0,0,0,0,0,0,45,0,9.8062,53.8,0,0,0,12184,2498.8,5.7154,0.036884,NaN,1629.8,NaN,0.0068383,425654,484.55,0.014075,0.69178,0.27552,0.50662,0.065149,0.12001,NaN,NaN,NaN,NaN,NaN,NaN,NaN,NaN,140,153.94,90,0,NaN,15,1013.2,340.39,0.01,0.031709
0.14,0.059668,1.6744,32.914,1.6744,32.914,0,0,0,0,0,0,45,0,9.8062,48.582,0,0,0,12182,2496.9,5.7148,0.036883,NaN,1629.8,NaN,0.0074358,462844,520.44,0.022499,0.68271,0.37248,0.49755,0.06515,0.12001,NaN,NaN,NaN,NaN,NaN,NaN,NaN,NaN,140,153.94,90,0,NaN,15,1013.2,340.39,0.01,0.038757
0.15,0.078058,2.0036,35.866,2.0036,35.866,0,0,0,0,0,0,45,0,9.8062,43.746,0,0,0,12180,2495,5.7142,0.036881,NaN,1629.7,NaN,0.008148,507175,556.33,0.033887,0.67308,0.46724,0.48792,0.065151,0.12001,NaN,NaN,NaN,NaN,NaN,NaN,NaN,NaN,140,153.94,90,0,NaN,14.999,1013.2,340.39,0.01,0.039407
0.16,0.099887,2.3623,38.819,2.3623,38.819,0,0,0,0,0,0,45,0,9.8062,39.229,0,0,0,12178,2493.1,5.7136,0.03688,NaN,1629.6,NaN,0.0089593,557675,592.23,0.048681,0.66338,0.55515,0.47821,0.065152,0.12001,NaN,NaN,NaN,NaN,NaN,NaN,NaN,NaN,140,153.94,90,0,NaN,14.999,1013.2,340.39,0.01,0.041747
0.17,0.12545,2.7506,41.773,2.7506,41.773,0,0,0,0,0,0,45,0,9.8062,35.19,0,0,0,12176,2491.2,5.713,0.036879,NaN,1629.6,NaN,0.0098877,615461,628.12,0.067125,0.6536,0.62848,0.46844,0.065153,0.12001,NaN,NaN,NaN,NaN,NaN,NaN,NaN,NaN,140,153.94,90,0,NaN,14.999,1013.2,340.39,0.01,0.042295
0.18,0.15505,3.1684,44.727,3.1684,44.727,0,0,0,0,0,0,45,0,9.8062,31.618,0,0,0,12175,2489.4,5.7124,0.036877,NaN,1629.5,NaN,0.010931,680370,664.01,0.089471,0.64397,0.68549,0.4588,0.065155,0.12002,NaN,NaN,NaN,NaN,NaN,NaN,NaN,NaN,140,153.94,90,0,NaN,14.999,1013.2,340.39,0.01,0.042777
0.19,0.18897,3.6157,46.47,3.6157,46.47,0,0,0,0,0,0,45,0,9.8062,28.479,0,0,0,12173,2487.5,5.7118,0.036876,NaN,1629.5,NaN,0.012085,752203,685.15,0.11594,0.63462,0.72676,0.44945,0.065157,0.12002,NaN,NaN,NaN,NaN,NaN,NaN,NaN,NaN,140,153.94,90,0,NaN,14.999,1013.2,340.39,0.01,0.043654
0.2,0.22745,4.0805,46.452,4.0805,46.452,0,0,0,0,0,0,45,0,9.8062,25.798,0,0,0,12170,2484.8,5.7109,0.036874,NaN,1629.4,NaN,0.013315,828769,684.8,0.14595,0.62586,0.7536,0.44068,0.065159,0.12002,NaN,NaN,NaN,NaN,NaN,NaN,NaN,NaN,140,153.94,90,0,NaN,14.999,1013.2,340.39,0.01,0.045624
0.21,0.27058,4.5451,46.422,4.5451,46.422,0,0,0,0,0,0,45,0,9.8062,23.395,0,0,0,12166,2481.2,5.7098,0.036872,NaN,1629.2,NaN,0.014549,905584,684.27,0.17821,0.61808,0.77068,0.43289,0.065162,0.12003,NaN,NaN,NaN,NaN,NaN,NaN,NaN,NaN,140,153.94,90,0,NaN,14.998,1013.2,340.39,0.01,0.046113
0.22,0.31835,5.0095,46.392,5.0095,46.392,0,0,0,0,0,0,45,0,9.8062,21.372,0,0,0,12163,2477.5,5.7086,0.036869,NaN,1629.1,NaN,0.015804,983689,683.74,0.21242,0.611,0.77854,0.4258,0.065165,0.12003,NaN,NaN,NaN,NaN,NaN,NaN,NaN,NaN,140,153.94,90,0,NaN,14.998,1013.2,340.39,0.01,0.047196
0.23,0.37076,5.4735,46.363,5.4735,46.363,0,0,0,0,0,0,45,0,9.8062,19.65,0,0,0,12159,2473.8,5.7074,0.036867,NaN,1629,NaN,0.017075,1062788,683.21,0.24841,0.60454,0.77998,0.41933,0.065168,0.12004,NaN,NaN,NaN,NaN,NaN,NaN,NaN,NaN,140,153.94,90,0,NaN,14.998,1013.2,340.39,0.01,0.047732
0.24,0.42782,5.9373,46.333,5.9373,46.333,0,0,0,0,0,0,45,0,9.8062,18.168,0,0,0,12155,2470.1,5.7062,0.036864,NaN,1628.9,NaN,0.018358,1142662,682.68,0.28607,0.59862,0.77703,0.4134,0.065172,0.12004,NaN,NaN,NaN,NaN,NaN,NaN,NaN,NaN,140,153.94,90,0,NaN,14.997,1013.2,340.39,0.01,0.048241
0.25,0.48951,6.4007,46.303,6.4007,46.303,0,0,0,0,0,0,45,0,9.8062,16.881,0,0,0,12152,2466.4,5.705,0.036861,NaN,1628.8,NaN,0.019651,1223146,682.14,0.32528,0.59317,0.77109,0.40794,0.065175,0.12005,NaN,NaN,NaN,NaN,NaN,NaN,NaN,NaN,140,153.94,90,0,NaN,14.997,1013.2,340.39,0.01,0.048743
0.26,0.55583,6.8639,46.273,6.8639,46.273,0,0,0,0,0,0,45,0,9.8062,16.02,0,0,0,12148,2462.7,5.7038,0.036859,NaN,1628.6,NaN,0.02098,1305836,681.61,0.36674,0.58804,0.76276,0.4028,0.06518,0.12006,NaN,NaN,NaN,NaN,NaN,NaN,NaN,NaN,140,153.94,90,0,NaN,14.996,1013.2,340.39,0.01,0.04926
0.27,0.62678,7.3268,46.243,7.3268,46.243,0,0,0,0,0,0,45,0,9.8062,15.262,0,0,0,12144,2459,5.7026,0.036856,NaN,1628.5,NaN,0.022312,1388731,681.08,0.40957,0.5833,0.75317,0.39805,0.065184,0.12006,NaN,NaN,NaN,NaN,NaN,NaN,NaN,NaN,140,153.94,90,0,NaN,14.996,1013.2,340.39,0.01,0.049776
0.28,0.70236,7.7893,46.212,7.7893,46.212,0,0,0,0,0,0,45,0,9.8062,14.59,0,0,0,12140,2455.3,5.7014,0.036853,NaN,1628.4,NaN,0.023646,1471786,680.55,0.45387,0.5789,0.74309,0.39364,0.065189,0.12007,NaN,NaN,NaN,NaN,NaN,NaN,NaN,NaN,140,153.94,90,0,NaN,14.995,1013.2,340.39,0.01,0.05029
0.29,0.78257,8.2516,46.182,8.2516,46.182,0,0,0,0,0,0,45,0,9.8062,13.99,0,0,0,12137,2451.6,5.7002,0.036851,NaN,1628.3,NaN,0.024983,1554967,680.01,0.49971,0.57481,0.73295,0.38954,0.065194,0.12008,NaN,NaN,NaN,NaN,NaN,NaN,NaN,NaN,140,153.94,90,0,NaN,14.995,1013.2,340.39,0.01,0.050772
0.3,0.86739,8.7135,46.151,8.7135,46.151,0,0,0,0,0,0,45,0,9.8062,13.452,0,0,0,12133,2447.9,5.699,0.036848,NaN,1628.1,NaN,0.026321,1638246,679.48,0.54716,0.57099,0.72301,0.3857,0.065199,0.12009,NaN,NaN,NaN,NaN,NaN,NaN,NaN,NaN,140,153.94,90,0,NaN,14.994,1013.1,340.39,0.01,0.051194
0.31,0.95684,9.1751,46.121,9.1751,46.121,0,0,0,0,0,0,45,0,9.8062,12.724,0,0,0,12129,2444.2,5.6978,0.036846,NaN,1628,NaN,0.027634,1719940,678.95,0.59292,0.56748,0.71082,0.38217,0.065205,0.1201,NaN,NaN,NaN,NaN,NaN,NaN,NaN,NaN,140,153.94,90,0,NaN,14.994,1013.1,340.39,0.01,0.051621
0.32,1.0509,9.6365,46.09,9.6365,46.09,0,0,0,0,0,0,45,0,9.8062,12.062,0,0,0,12126,2440.5,5.6966,0.036843,NaN,1627.9,NaN,0.02895,1801830,678.42,0.63979,0.56417,0.69887,0.37885,0.06521,0.12011,NaN,NaN,NaN,NaN,NaN,NaN,NaN,NaN,140,153.94,90,0,NaN,14.993,1013.1,340.38,0.01,0.052056
0.33,1.1496,10.097,46.059,10.097,46.059,0,0,0,0,0,0,45,0,9.8062,11.459,0,0,0,12122,2436.8,5.6954,0.03684,NaN,1627.8,NaN,0.030268,1883882,677.89,0.68786,0.56104,0.68736,0.3757,0.065216,0.12012,NaN,NaN,NaN,NaN,NaN,NaN,NaN,NaN,140,153.94,90,0,NaN,14.993,1013.1,340.38,0.01,0.052493
0.34,1.2528,10.558,46.028,10.558,46.028,0,0,0,0,0,0,45,0,9.8062,10.906,0,0,0,12118,2433.1,5.6942,0.036838,NaN,1627.6,NaN,0.031589,1966069,677.35,0.73723,0.55807,0.67638,0.37272,0.065223,0.12013,NaN,NaN,NaN,NaN,NaN,NaN,NaN,NaN,140,153.94,90,0,NaN,14.992,1013.1,340.38,0.01,0.052928
0.35,1.3607,11.019,45.997,11.019,45.997,0,0,0,0,0,0,45,0,9.8062,10.398,0,0,0,12115,2429.4,5.693,0.036835,NaN,1627.5,NaN,0.032912,2048366,676.82,0.78795,0.55526,0.66599,0.36989,0.065229,0.12014,NaN,NaN,NaN,NaN,NaN,NaN,NaN,NaN,140,153.94,90,0,NaN,14.991,1013.1,340.38,0.01,0.053384
0.36,1.4732,11.479,45.966,11.479,45.966,0,0,0,0,0,0,45,0,9.8062,9.8876,0,0,0,12111,2425.6,5.6918,0.036833,NaN,1627.4,NaN,0.034231,2130482,676.29,0.83911,0.5526,0.65561,0.36721,0.065236,0.12015,NaN,NaN,NaN,NaN,NaN,NaN,NaN,NaN,140,153.94,90,0,NaN,14.99,1013.1,340.38,0.01,0.053813
0.37,1.5903,11.938,45.935,11.938,45.935,0,0,0,0,0,0,45,0,9.8062,9.4154,0,0,0,12107,2421.9,5.6906,0.03683,NaN,1627.3,NaN,0.035553,2212696,675.76,0.89166,0.55006,0.64585,0.36466,0.065243,0.12016,NaN,NaN,NaN,NaN,NaN,NaN,NaN,NaN,140,153.94,90,0,NaN,14.99,1013.1,340.38,0.01,0.054248
0.38,1.712,12.398,45.903,12.398,45.903,0,0,0,0,0,0,45,0,9.8062,8.9773,0,0,0,12103,2418.2,5.6894,0.036827,NaN,1627.2,NaN,0.036875,2294991,675.23,0.94912,0.54966,0.63905,0.36423,0.065251,0.12018,NaN,NaN,NaN,NaN,NaN,NaN,NaN,NaN,140,153.94,90,0,NaN,14.989,1013,340.38,0.01,0.054678
0.39,1.8383,12.857,45.871,12.857,45.871,0,0,0,0,0,0,45,0,9.8062,8.5698,0,0,0,12100,2414.5,5.6882,0.036825,NaN,1627,NaN,0.038199,2377350,674.69,1.0091,0.54968,0.63314,0.36423,0.065258,0.12019,NaN,NaN,NaN,NaN,NaN,NaN,NaN,NaN,140,153.94,90,0,NaN,14.988,1013,340.38,0.01,0.055075
0.4,1.9691,13.316,45.839,13.316,45.839,0,0,0,0,0,0,45,0,9.8062,8.1897,0,0,0,12096,2410.8,5.687,0.036822,NaN,1626.9,NaN,0.039524,2459762,674.16,1.0708,0.54969,0.62764,0.36422,0.065266,0.1202,NaN,NaN,NaN,NaN,NaN,NaN,NaN,NaN,140,153.94,90,0,NaN,14.987,1013,340.38,0.01,0.055495
0.41,2.1046,13.774,45.807,13.774,45.807,0,0,0,0,0,0,45,0,9.8062,8.0163,0,0,0,12092,2407.1,5.6858,0.03682,NaN,1626.8,NaN,0.040867,2543337,673.63,1.1403,0.54971,0.62514,0.36422,0.065275,0.12022,NaN,NaN,NaN,NaN,NaN,NaN,NaN,NaN,140,153.94,90,0,NaN,14.986,1013,340.38,0.01,0.055915
0.42,2.2446,14.233,45.774,14.233,45.774,0,0,0,0,0,0,45,0,9.8062,7.8541,0,0,0,12089,2403.4,5.6846,0.036817,NaN,1626.7,NaN,0.04221,2626871,673.1,1.2119,0.54973,0.62281,0.36422,0.065283,0.12023,NaN,NaN,NaN,NaN,NaN,NaN,NaN,NaN,140,153.94,90,0,NaN,14.985,1013,340.38,0.01,0.056355
0.43,2.3892,14.69,45.741,14.69,45.741,0,0,0,0,0,0,45,0,9.8062,7.7021,0,0,0,12085,2399.7,5.6834,0.036814,NaN,1626.5,NaN,0.043552,2710363,672.57,1.2857,0.54975,0.62064,0.36421,0.065292,0.12025,NaN,NaN,NaN,NaN,NaN,NaN,NaN,NaN,140,153.94,90,0,NaN,14.984,1013,340.38,0.01,0.056782
0.44,2.5384,15.148,45.707,15.148,45.71,0,0,0,0,0,0.50169,45,0,9.8062,7.5593,0,0,0,12081,2396,5.6822,0.036812,1760.9,1626.4,0.96071,0.044893,2793810,672.04,1.3616,0.54977,0.6186,0.36421,0.065302,0.12026,2.7537,2.6459,4.813e-4,0,0.42216,0.42216,0,0,140,153.94,90,0,NaN,14.984,1013,340.38,0.0098776,0.057667
0.44988,2.6903,15.6,45.675,15.6,45.678,-2.4764e-5,0,2.4764e-5,180,0.0050429,0.51917,45,0,9.8062,7.4079,2.0596,0.083022,-1.2471e-5,12078,2392.4,5.681,0.036809,1761.9,1626.3,0.96877,0.046216,2876070,671.53,1.438,0.54979,0.61646,0.3642,0.065311,0.12028,2.6901,2.6065,5.3321e-5,0,0.42216,0.42216,0,4.0374e-5,140,153.94,90,0.0065931,NaN,14.983,1012.9,340.38,0.0093198,0.058191
0.4592,2.8376,16.025,45.645,16.025,45.648,-9.448e-5,0,9.448e-5,180,0.0099355,0.53048,45,0,9.8062,7.2196,4.1139,0.16442,-7.2064e-5,12074,2388.8,5.6799,0.036807,1763.2,1626.2,0.97862,0.047458,2953301,671.04,1.5097,0.54981,0.61379,0.3642,0.06532,0.12029,2.6115,2.5559,-3.9982e-4,0,0.42217,0.42217,0,1.5017e-4,140,153.94,89.998,0.014009,NaN,14.982,1012.9,340.38,0.008838,0.058727
0.46804,2.9811,16.429,45.617,16.429,45.62,-2.0314e-4,0,2.0314e-4,180,0.014669,0.54039,45,0,9.8062,7.0483,6.102,0.24411,-2.3053e-4,12071,2385.4,5.6788,0.036804,1764.3,1626.1,0.98769,0.048635,3026509,670.54,1.5793,0.54983,0.61138,0.3642,0.065329,0.12031,2.5404,2.5088,3.3388e-5,0,0.34817,0.42217,0.073999,3.152e-4,140,153.94,89.997,0.027508,NaN,14.981,1012.9,340.38,0.010203,0.059279
0.47824,3.1511,16.894,45.578,16.894,45.582,-3.8113e-4,0,3.8113e-4,180,0.020237,0.55085,45,0,9.8062,6.8594,8.0938,0.33917,-6.0309e-4,12067,2381.9,5.6776,0.036802,1765.6,1625.9,0.99773,0.049993,3110996,669.99,1.6615,0.54985,0.60875,0.36419,0.065339,0.12032,2.4625,2.4563,1.5429e-4,0,0.32668,0.42217,0.095493,5.7586e-4,140,153.94,89.994,0.051566,NaN,14.98,1012.9,340.38,0.010291,0.06013
0.48853,3.3273,17.364,45.543,17.364,45.547,-6.1874e-4,0,6.1874e-4,180,0.025956,0.56032,45,-7.8796e-9,9.8062,6.6776,10.084,0.43833,-0.0012453,12063,2378.1,5.6764,0.036799,1766.9,1625.8,1.0076,0.051362,3196168,669.44,1.7465,0.54988,0.60624,0.36419,0.06535,0.12034,2.3881,2.4048,1.8633e-4,0,0.30637,0.42218,0.11581,9.1118e-4,140,153.94,89.99,0.083075,NaN,14.978,1012.9,340.38,0.010396,0.060798
0.49893,3.5103,17.837,45.508,17.837,45.511,-9.1901e-4,0,9.1901e-4,180,0.031827,0.56873,45,-1.1703e-8,9.8062,6.5021,12.073,0.54182,-0.0022358,12060,2374.3,5.6751,0.036797,1768.1,1625.7,1.0172,0.052745,3282162,668.89,1.8345,0.5499,0.60384,0.36418,0.065361,0.12036,2.3167,2.3552,1.137e-4,0,0.28716,0.42219,0.13503,0.0013202,140,153.94,89.985,0.12173,NaN,14.977,1012.8,340.38,0.010516,0.061518
0.50944,3.7004,18.316,45.471,18.316,45.475,-0.0012853,1.0609e-8,0.0012853,180,0.037835,0.57347,45,-1.6368e-8,9.8062,6.3091,14.06,0.64977,-0.0036701,12056,2370.4,5.6739,0.036794,1769.4,1625.5,1.0278,0.054141,3368960,668.32,1.9245,0.54993,0.60123,0.36417,0.065372,0.12038,2.2387,2.2988,3.4601e-4,0,0.26898,0.42219,0.15321,0.0018021,140,153.94,89.978,0.16746,NaN,14.976,1012.8,340.37,0.010655,0.062278
0.5201,3.8981,18.8,45.434,18.8,45.438,-0.001721,2.5105e-8,0.001721,180,0.043964,0.57657,45,-2.1917e-8,9.8062,6.1193,16.046,0.76219,-0.0056556,12052,2366.5,5.6726,0.036791,1770.8,1625.4,1.0384,0.055554,3456846,667.75,2.0177,0.54995,0.5987,0.36417,0.065385,0.1204,2.1626,2.2434,4.7847e-4,0,0.25179,0.4222,0.17041,0.002355,140,153.94,89.971,0.22073,NaN,14.975,1012.8,340.37,0.010811,0.062733
0.53091,4.104,19.292,45.396,19.292,45.4,-0.00223,5.3919e-8,0.00223,180,0.050208,0.57821,45,-2.8399e-8,9.8062,5.9349,18.03,0.87932,-0.0083204,12048,2362.5,5.6713,0.036788,1772.1,1625.3,1.0488,0.056988,3545971,667.17,2.1145,0.54998,0.59627,0.36416,0.065397,0.12042,2.0891,2.1886,1.6713e-4,0,0.23552,0.4222,0.18669,0.0029788,140,153.94,89.962,0.28185,NaN,14.973,1012.8,340.37,0.010983,0.065084
0.54189,4.3187,19.79,45.358,19.791,45.361,-0.0028163,1.074e-7,0.0028163,180,0.056561,0.57827,45,-3.5866e-8,9.8062,5.7551,20.013,1.0014,-0.011778,12044,2358.5,5.67,0.036785,1773.4,1625.1,1.0592,0.058443,3636467,666.58,2.2151,0.55001,0.59394,0.36416,0.06541,0.12044,2.0179,2.1339,3.887e-4,0,0.22013,0.42221,0.20208,0.0036735,140,153.94,89.952,0.35114,NaN,14.972,1012.7,340.37,0.011172,0.065979
0.55306,4.5426,20.297,45.318,20.297,45.322,-0.0034843,2.0147e-7,0.0034843,180,0.063015,0.5773,45,-4.4372e-8,9.8062,5.5847,21.996,1.1288,-0.016173,12040,2354.4,5.6687,0.036783,1774.7,1625,1.0692,0.059923,3728504,665.98,2.3202,0.55004,0.59177,0.36415,0.065424,0.12047,1.9509,2.0814,-3.9554e-4,0,0.20559,0.42222,0.21663,0.0044396,140,153.94,89.94,0.42882,NaN,14.97,1012.7,340.37,0.011378,0.066396
0.56444,4.7765,20.813,45.277,20.813,45.281,-0.0042386,3.5991e-7,0.0042386,180,0.06958,0.57639,45,-5.3978e-8,9.8062,5.4318,23.976,1.2619,-0.021677,12035,2350.2,5.6673,0.03678,1775.9,1624.9,1.0785,0.061432,3822267,665.37,2.4304,0.55007,0.58985,0.36414,0.065438,0.12049,1.8911,2.034,-4.021e-4,0,0.19186,0.42222,0.23036,0.0052797,140,153.94,89.926,0.51513,NaN,14.969,1012.7,340.37,0.0116,0.066837
0.57604,5.0209,21.338,45.22,21.338,45.224,-0.0050844,6.1746e-7,0.0050844,179.99,0.076252,0.5736,45,-6.475e-8,9.8062,5.2813,25.956,1.4013,-0.028485,12031,2346,5.6659,0.036777,1777,1624.7,1.0878,0.062968,3917791,664.55,2.5454,0.55011,0.58799,0.36414,0.065453,0.12052,1.8326,1.9875,5.4212e-6,0,0.17891,0.42223,0.24332,0.0061964,140,153.94,89.911,0.6106,NaN,14.967,1012.7,340.37,0.011839,0.067323
0.58788,5.2767,21.874,45.152,21.874,45.156,-0.0060273,1.0239e-6,0.0060273,179.99,0.083016,0.56872,45,-7.6757e-8,9.8062,5.133,27.935,1.5473,-0.036795,12027,2341.7,5.6645,0.036774,1778.2,1624.6,1.0971,0.064535,4015180,663.63,2.6654,0.55014,0.58619,0.36413,0.065468,0.12054,1.7752,1.9407,-1.9018e-4,0,0.1667,0.42224,0.25554,0.0071921,140,153.94,89.893,0.71561,NaN,14.966,1012.6,340.37,0.012096,0.067795
0.59998,5.5446,22.42,45.083,22.42,45.086,-0.0070729,1.6496e-6,0.0070729,179.99,0.089854,0.56154,45,-9.0073e-8,9.8062,4.9864,29.913,1.7001,-0.046858,12023,2337.5,5.6632,0.036771,1779.4,1624.4,1.1066,0.066134,4114551,662.68,2.7907,0.55018,0.58445,0.36412,0.065484,0.12057,1.7188,1.8938,3.16e-4,0,0.1552,0.42225,0.26705,0.0082686,140,153.94,89.874,0.83054,NaN,14.964,1012.6,340.37,0.012371,0.068241
0.61235,5.8254,22.978,45.012,22.978,45.015,-0.008227,2.5925e-6,0.008227,179.98,0.096685,0.5424,45,-1.0477e-7,9.8062,4.7826,31.889,1.8594,-0.058984,12018,2333.1,5.6617,0.036768,1781,1624.3,1.1194,0.067761,4215665,661.71,2.9176,0.55021,0.58205,0.36411,0.065501,0.1206,1.641,1.828,3.7847e-4,0,0.14437,0.42226,0.27789,0.0094211,140,153.94,89.852,0.95599,NaN,14.962,1012.6,340.37,0.012668,0.068708
0.62501,6.1201,23.548,44.938,23.549,44.941,-0.0094948,3.9886e-6,0.0094948,179.98,0.10342,0.51995,45,-1.2092e-7,9.8062,4.5813,33.865,2.0244,-0.073464,12014,2328.7,5.6603,0.036764,1782.7,1624.1,1.1325,0.069425,4319079,660.71,3.0504,0.55025,0.57976,0.36411,0.065519,0.12063,1.5647,1.7617,-9.9883e-5,0,0.1342,0.42227,0.28806,0.010639,140,153.94,89.827,1.0926,NaN,14.96,1012.5,340.36,0.012982,0.069131
0.638,6.4296,24.132,44.863,24.132,44.866,-0.01088,6.0233e-6,0.01088,179.97,0.11,0.49392,45,-1.3856e-7,9.8062,4.3824,35.84,2.1952,-0.09065,12009,2324.1,5.6588,0.036761,1784.4,1624,1.1458,0.071128,4424919,659.69,3.1897,0.55029,0.57755,0.3641,0.065538,0.12066,1.4898,1.695,-1.282e-4,0,0.12467,0.42227,0.2976,0.011918,140,153.94,89.8,1.2411,NaN,14.958,1012.5,340.36,0.013312,0.069563
0.65131,6.7548,24.729,44.785,24.73,44.788,-0.012388,8.9478e-6,0.012388,179.96,0.11638,0.46524,45,-1.5776e-7,9.8062,4.1923,37.815,2.3719,-0.11089,12005,2319.4,5.6572,0.036758,1786.1,1623.8,1.1591,0.072873,4533348,658.65,3.3361,0.55034,0.5755,0.36409,0.065557,0.12069,1.4188,1.6315,4.7236e-4,0,0.11577,0.42228,0.30652,0.013255,140,153.94,89.769,1.4021,NaN,14.956,1012.5,340.36,0.013657,0.069987
0.66497,7.0967,25.341,44.705,25.341,44.707,-0.01402,1.31e-5,0.01402,179.95,0.12259,0.44417,45,-1.7854e-7,9.8062,4.0662,39.789,2.556,-0.13464,12000,2314.6,5.6557,0.036755,1787.4,1623.7,1.1693,0.074667,4644807,657.57,3.4943,0.55038,0.5742,0.36408,0.065578,0.12072,1.3719,1.5891,-1.4963e-6,0,0.10748,0.4223,0.31482,0.014663,140,153.94,89.735,1.576,NaN,14.954,1012.4,340.36,0.014011,0.070468
0.67898,7.4562,25.968,44.622,25.968,44.624,-0.01578,1.8927e-5,0.01578,179.93,0.12864,0.41922,45,-2.0096e-7,9.8062,3.9395,41.764,2.7489,-0.16242,11995,2309.7,5.6541,0.036751,1788.7,1623.5,1.18,0.076504,4758960,656.47,3.6601,0.55043,0.57292,0.36407,0.065599,0.12076,1.3249,1.5473,-3.5581e-4,0,0.099756,0.42231,0.32255,0.016155,140,153.94,89.698,1.7633,NaN,14.952,1012.4,340.36,0.014379,0.070886
0.69336,7.8342,26.609,44.537,26.61,44.539,-0.017672,2.7021e-5,0.017672,179.91,0.13446,0.39,45,-2.2505e-7,9.8062,3.8121,43.738,2.9508,-0.19481,11990,2304.6,5.6524,0.036748,1790.1,1623.3,1.1914,0.078386,4875895,655.34,3.8338,0.55048,0.57167,0.36406,0.065622,0.1208,1.2778,1.5046,3.9886e-4,0,0.092583,0.42232,0.32973,0.017731,140,153.94,89.657,1.9646,NaN,14.949,1012.3,340.36,0.014757,0.071298
0.70811,8.2317,27.267,44.449,27.267,44.45,-0.019698,3.8158e-5,0.019698,179.89,0.13996,0.35451,45,-2.5085e-7,9.8062,3.6762,45.712,3.1616,-0.23249,11985,2299.4,5.6507,0.036744,1791.7,1623.1,1.204,0.080314,4995635,654.18,4.0153,0.55053,0.57036,0.36405,0.065646,0.12084,1.2279,1.4585,5.8424e-4,0,0.08593,0.42233,0.3364,0.01939,140,153.94,89.612,2.1802,NaN,14.946,1012.3,340.36,0.015144,0.071723
0.72326,8.6497,27.94,44.358,27.94,44.359,-0.021856,5.335e-5,0.021856,179.86,0.145,0.31251,45,-2.7834e-7,9.8062,3.5333,47.687,3.3808,-0.2763,11979,2294.1,5.649,0.03674,1793.5,1623,1.2179,0.082288,5118249,652.99,4.2051,0.55059,0.56903,0.36403,0.065671,0.12088,1.1756,1.411,-2.0073e-4,0,0.079775,0.42234,0.34257,0.021122,140,153.94,89.562,2.4107,NaN,14.944,1012.2,340.35,0.015538,0.072372
0.73879,9.0892,28.629,44.265,28.63,44.265,-0.024145,7.3899e-5,0.024145,179.82,0.14948,0.26493,45,-3.0748e-7,9.8062,3.3893,49.661,3.6082,-0.32698,11974,2288.6,5.6472,0.036736,1795.4,1622.8,1.2328,0.08431,5243808,651.77,4.4039,0.55064,0.56772,0.36402,0.065697,0.12092,1.1231,1.3615,2.9225e-4,0,0.074097,0.42236,0.34826,0.022918,140,153.94,89.508,2.6565,NaN,14.941,1012.2,340.35,0.015936,0.07301
0.75473,9.5511,29.335,44.168,29.335,44.169,-0.026558,1.0147e-4,0.026558,179.78,0.15326,0.2139,45,-3.3821e-7,9.8062,3.2537,51.637,3.8433,-0.38556,11968,2283,5.6453,0.036732,1797.4,1622.6,1.2485,0.086381,5372374,650.52,4.613,0.5507,0.56654,0.36401,0.065724,0.12097,1.0738,1.3154,3.0628e-5,0,0.068873,0.42237,0.3535,0.024771,140,153.94,89.448,2.918,NaN,14.938,1012.1,340.35,0.016331,0.07357
0.77106,10.036,30.057,44.069,30.057,44.069,-0.029086,1.3818e-4,0.029087,179.73,0.15628,0.16313,45,-3.7041e-7,9.8062,3.1389,53.613,4.0875,-0.45287,11962,2277.3,5.6434,0.036728,1799.4,1622.4,1.2642,0.088501,5503993,649.24,4.8338,0.55077,0.56559,0.364,0.065753,0.12102,1.0321,1.2781,-1.338e-5,0,0.064081,0.42238,0.3583,0.026692,140,153.94,89.383,3.1954,NaN,14.935,1012.1,340.35,0.016721,0.074031
0.78778,10.545,30.794,43.967,30.794,43.967,-0.031719,1.8666e-4,0.031719,179.66,0.15844,0.10932,45,-4.0394e-7,9.8062,3.0216,55.59,4.3406,-0.53027,11957,2271.4,5.6415,0.036724,1801.6,1622.2,1.2816,0.090667,5638450,647.93,5.0645,0.55083,0.56464,0.36398,0.065783,0.12107,0.98961,1.2398,4.1038e-4,0,0.059684,0.4224,0.36271,0.02868,140,153.94,89.312,3.4887,NaN,14.931,1012,340.35,0.017104,0.074505
0.80489,11.078,31.546,43.861,31.546,43.861,-0.034439,2.5023e-4,0.03444,179.58,0.15956,0.066084,45,-4.3858e-7,9.8062,2.9026,57.569,4.602,-0.61935,11951,2265.3,5.6395,0.03672,1804.1,1622,1.3011,0.092878,5775677,646.59,5.3055,0.5509,0.56371,0.36397,0.065815,0.12112,0.94658,1.2005,1.0778e-4,0,0.055656,0.42241,0.36676,0.030722,140,153.94,89.235,3.7978,NaN,14.928,1012,340.35,0.017478,0.075
0.82237,11.636,32.313,43.753,32.313,43.753,-0.037228,3.3294e-4,0.037229,179.49,0.15947,0.083395,45,-4.7409e-7,9.8062,2.7832,59.548,4.8709,-0.72161,11944,2259.2,5.6375,0.036716,1806.9,1621.8,1.3227,0.095132,5915584,645.22,5.557,0.55098,0.56282,0.36395,0.065848,0.12118,0.90346,1.1617,9.9315e-4,0,0.051971,0.42243,0.37046,0.032806,140,153.94,89.152,4.1227,NaN,14.924,1011.9,340.34,0.01784,0.075409
0.84021,12.219,33.093,43.642,33.094,43.643,-0.04006,4.3977e-4,0.040062,179.37,0.15799,0.15338,45,-5.1016e-7,9.8062,2.6608,61.529,5.1461,-0.83907,11938,2252.9,5.6354,0.036711,1810.2,1621.5,1.3472,0.097428,6058035,643.82,5.8189,0.55105,0.56193,0.36394,0.065882,0.12123,0.8594,1.123,4.3843e-4,0,0.048601,0.42245,0.37385,0.034913,140,153.94,89.062,4.4631,NaN,14.921,1011.8,340.34,0.018188,0.075804
0.85839,12.829,33.887,43.529,33.888,43.529,-0.042905,5.7676e-4,0.042908,179.23,0.1549,0.24433,45,-5.4639e-7,9.8062,2.5293,63.51,5.4259,-0.97441,11932,2246.5,5.6333,0.036707,1813.9,1621.3,1.3754,0.099762,6202854,642.4,6.0907,0.55113,0.56102,0.36392,0.065918,0.12129,0.81231,1.0806,0.0011862,0,0.045517,0.42247,0.37695,0.037017,140,153.94,88.964,4.8186,NaN,14.917,1011.7,340.34,0.018521,0.076297
0.87691,13.464,34.694,43.412,34.694,43.413,-0.045725,7.5114e-4,0.045731,179.06,0.14994,0.35024,45,-5.8231e-7,9.8062,2.3881,65.493,5.7064,-1.1309,11925,2239.9,5.6312,0.036702,1818.2,1621.1,1.4081,0.10213,6349893,640.95,6.3725,0.55121,0.56009,0.3639,0.065956,0.12136,0.76204,1.034,0.0018463,0,0.042695,0.42249,0.37979,0.039066,140,153.94,88.86,5.1889,NaN,14.912,1011.7,340.34,0.018838,0.077463
0.89575,14.125,35.512,43.292,35.512,43.295,-0.048477,9.7158e-4,0.048487,178.85,0.14286,0.46789,45,-6.1736e-7,9.8062,2.2445,67.477,5.9848,-1.3114,11918,2233.3,5.629,0.036697,1823.3,1620.9,1.4457,0.10454,6499055,639.48,6.6649,0.5513,0.55919,0.36388,0.065994,0.12142,0.71113,0.98736,0.0022439,0,0.040113,0.4225,0.38239,0.041017,140,153.94,88.747,5.5736,NaN,14.908,1011.6,340.33,0.019138,0.079623
0.91489,14.812,36.341,43.17,36.341,43.174,-0.05111,0.0012483,0.051126,178.6,0.13338,0.61026,45,-6.5089e-7,9.8062,2.0595,69.462,6.2534,-1.5272,11912,2226.5,5.6268,0.036693,1829.7,1620.6,1.4929,0.10697,6649902,637.98,6.9644,0.55139,0.55808,0.36386,0.066035,0.12149,0.64662,0.92291,0.0021695,0,0.037735,0.42252,0.38479,0.042768,140,153.94,88.627,5.9719,NaN,14.904,1011.5,340.33,0.019428,0.080391
0.93432,15.527,37.179,43.045,37.18,43.051,-0.053562,0.0015933,0.053586,178.3,0.1211,0.76861,45,-6.8211e-7,9.8062,1.8632,71.448,6.5011,-1.7844,11905,2219.6,5.6245,0.036688,1837.4,1620.4,1.5499,0.10943,6802541,636.46,7.274,0.55148,0.557,0.36385,0.066076,0.12156,0.57885,0.85335,0.0032106,0,0.035553,0.42255,0.38699,0.044167,140,153.94,88.5,6.3839,NaN,14.899,1011.4,340.33,0.019702,0.081015
0.95402,16.268,38.028,42.96,38.028,42.97,-0.055762,0.0020208,0.055798,177.92,0.10594,0.93918,45,-7.1012e-7,9.8061,1.6708,73.435,6.719,-2.0914,11898,2212.6,5.6222,0.036683,1846.7,1620.2,1.6183,0.11192,6956920,635.46,7.5952,0.55157,0.55605,0.36383,0.066119,0.12163,0.51289,0.7851,0.0047999,0,0.033552,0.42257,0.38902,0.045101,140,153.94,88.365,6.8091,NaN,14.894,1011.3,340.32,0.019957,0.081556
0.97398,17.035,38.885,42.952,38.885,42.966,-0.057629,0.0025467,0.057685,177.47,0.088191,1.1198,45,-7.339e-7,9.8061,1.4915,75.423,6.8975,-2.4571,11891,2205.6,5.6199,0.036678,1858,1619.9,1.7005,0.11444,7113090,635.37,7.9292,0.55167,0.55527,0.3638,0.066164,0.1217,0.45166,0.72252,0.005675,0,0.031723,0.42259,0.39087,0.045461,140,153.94,88.222,7.2467,NaN,14.889,1011.3,340.32,0.020187,0.082029
0.99417,17.829,39.753,42.943,39.753,42.963,-0.059077,0.0031893,0.059163,176.91,0.068959,1.3126,45,-7.5234e-7,9.8061,1.314,77.413,7.0179,-2.9037,11884,2198.6,5.6176,0.036673,1872.3,1619.7,1.8042,0.11699,7271041,635.3,8.2754,0.55177,0.55459,0.36378,0.06621,0.12178,0.39147,0.66161,0.0073577,0,0.030055,0.42261,0.39256,0.045034,140,153.94,88.072,7.6954,NaN,14.884,1011.2,340.32,0.020389,0.08247
1.0146,18.648,40.628,42.932,40.628,42.959,-0.060011,0.0039691,0.060142,176.22,0.052331,1.5152,45,-7.6424e-7,9.8061,1.1442,79.404,7.0527,-3.453,11877,2191.6,5.6152,0.036668,1890.7,1619.4,1.9373,0.11957,7430575,635.23,8.6342,0.55188,0.55403,0.36376,0.066258,0.12186,0.33417,0.60398,0.010253,0,0.028528,0.42264,0.39411,0.043544,140,153.94,87.915,8.1534,NaN,14.879,1011.1,340.32,0.020563,0.082902
1.0351,19.493,41.511,42.919,41.511,42.954,-0.060334,0.0049086,0.060533,175.35,0.04978,1.7279,45,-7.6834e-7,9.8061,0.98135,81.397,6.9535,-4.1404,11870,2184.5,5.6129,0.036663,1915.1,1619.2,2.1138,0.12217,7591459,635.16,9.0053,0.55198,0.55358,0.36374,0.066307,0.12194,0.27952,0.55024,0.014633,0,0.027125,0.42266,0.39554,0.040548,140,153.94,87.752,8.6185,NaN,14.873,1011,340.31,0.020717,0.083454
1.0558,20.362,42.401,42.905,42.401,42.949,-0.059941,0.0060327,0.060243,174.25,0.070036,1.9495,45,-7.6334e-7,9.8061,0.82869,83.39,6.6347,-5.0078,11862,2177.3,5.6105,0.036658,1948.2,1618.9,2.3516,0.12478,7753518,635.08,9.3886,0.5521,0.55324,0.36371,0.066357,0.12202,0.22859,0.50179,0.020548,0,0.025829,0.42269,0.39686,0.035383,140,153.94,87.583,9.0878,NaN,14.868,1010.9,340.31,0.020852,0.084145
1.0767,21.255,43.295,42.888,43.295,42.943,-0.058724,0.0073682,0.059185,172.85,0.10556,2.1769,45,-7.4785e-7,9.8061,0.69375,85.384,5.9561,-6.076,11855,2170.1,5.6081,0.036653,1991.3,1618.7,2.6614,0.12742,7916628,635.01,9.7844,0.55221,0.55302,0.36369,0.06641,0.12211,0.18394,0.46193,0.028071,0,0.024629,0.42271,0.39808,0.027349,140,153.94,87.409,9.5575,NaN,14.862,1010.8,340.31,0.020972,0.08463
1.0977,22.173,44.195,42.869,44.195,42.937,-0.056575,0.008944,0.057277,171.02,0.15004,2.4088,45,-7.2047e-7,9.8061,0.58046,87.379,4.6607,-7.315,11848,2162.8,5.6057,0.036648,2040.2,1618.4,3.0123,0.13007,8080624,634.94,10.192,0.55233,0.55289,0.36367,0.066463,0.1222,0.14748,0.42812,0.039588,0,0.023512,0.42274,0.39923,0.016071,140,153.94,87.23,10.022,NaN,14.856,1010.6,340.3,0.021082,0.085864
1.1187,23.114,45.099,42.849,45.099,42.93,-0.053378,0.010791,0.054458,168.57,0.20133,2.6476,45,-6.7976e-7,9.8061,0.49434,89.374,2.2652,-8.4956,11841,2155.5,5.6033,0.036643,2066.1,1618.2,3.1991,0.13273,8245298,634.86,10.612,0.55245,0.55286,0.36364,0.066518,0.12229,0.12283,0.38922,0.051624,0,0.022466,0.42277,0.4003,0.0036458,140,153.94,87.047,10.476,NaN,14.85,1010.5,340.3,0.021187,0.086379
1.1399,24.079,46.007,42.826,46.007,42.923,-0.049017,0.012944,0.050697,165.21,0.25879,2.8913,45,-6.2423e-7,9.8061,0.46712,91.37,-1.0404,-8.7791,11833,2148.1,5.6008,0.036638,2011.9,1617.9,2.8144,0.1354,8410710,634.79,11.044,0.55257,0.55294,0.36361,0.066574,0.12238,0.1213,0.34197,0.052375,0,0.021488,0.4228,0.40131,-7.3894e-4,140,153.94,86.862,10.913,NaN,14.843,1010.4,340.29,0.021284,0.086861
1.1612,25.068,46.918,42.8,46.919,42.916,-0.043373,0.015446,0.046041,160.4,0.32238,3.1585,45,-5.5235e-7,9.8061,0.50758,93.365,-4.2862,-7.6936,11826,2140.7,5.5984,0.036632,1910.2,1617.7,2.0892,0.13809,8576680,634.71,11.489,0.5527,0.55313,0.36359,0.066632,0.12248,0.14424,0.31306,0.039243,0,0.020567,0.42282,0.40226,-0.01206,140,153.94,86.675,11.336,NaN,14.837,1010.3,340.29,0.021381,0.087342
1.1826,26.081,47.833,42.77,47.835,42.909,-0.036314,0.018346,0.040685,153.2,0.39256,3.4476,45,-4.6246e-7,9.8061,0.60851,95.361,-6.3561,-5.9325,11819,2133.3,5.5959,0.036627,1844.1,1617.4,1.6189,0.14078,8743205,634.64,11.947,0.55283,0.55345,0.36356,0.066691,0.12258,0.18442,0.32361,0.022254,0,0.0197,0.42285,0.40315,-0.025516,140,153.94,86.49,11.755,NaN,14.83,1010.2,340.29,0.021475,0.088367
1.2041,27.118,48.752,42.737,48.754,42.901,-0.027699,0.0217,0.035187,141.92,0.46948,3.7461,45,-3.5275e-7,9.8061,0.74745,97.357,-7.3422,-4.3114,11811,2125.8,5.5935,0.036622,1818.4,1617.1,1.4373,0.14348,8910261,634.56,12.418,0.55296,0.55389,0.36353,0.066751,0.12268,0.23288,0.36712,0.010896,0,0.018883,0.42288,0.404,-0.032778,140,153.94,86.307,12.176,NaN,14.824,1010.1,340.28,0.021568,0.088849
1.2256,28.18,49.673,42.7,49.676,42.894,-0.017377,0.02556,0.030908,124.21,0.5536,4.0696,45,-2.213e-7,9.8061,0.93475,99.352,-7.7646,-2.8062,11804,2118.4,5.591,0.036617,1813,1616.9,1.4006,0.14619,9077496,634.49,12.905,0.55309,0.55454,0.3635,0.066813,0.12278,0.29368,0.44699,0.0044156,0,0.0181,0.42291,0.40481,-0.035314,140,153.94,86.128,12.605,NaN,14.817,1009.9,340.28,0.021674,0.089284
1.2473,29.266,50.599,42.661,50.603,42.886,-0.0051766,0.029985,0.030428,99.795,0.64512,4.3844,45,-6.5924e-8,9.8061,1.1252,101.35,-7.7101,-1.7555,11796,2110.8,5.5885,0.036611,1817.6,1616.6,1.4354,0.14891,9245439,634.41,13.406,0.55323,0.55532,0.36347,0.066876,0.12288,0.35291,0.54051,0.0022362,0,0.017369,0.42295,0.40558,-0.033561,140,153.94,85.955,13.043,NaN,14.81,1009.8,340.27,0.02177,0.090214
1.2691,30.378,51.527,42.625,51.533,42.876,0.0090593,0.035028,0.03618,75.499,0.7433,4.6347,45,1.1537e-7,9.8061,1.2358,103.35,-7.3666,-1.2809,11788,2103.3,5.5859,0.036606,1821.8,1616.3,1.4678,0.15165,9414756,634.34,13.917,0.55337,0.55588,0.36344,0.066941,0.12299,0.38663,0.59708,0.0013444,0,0.016708,0.42298,0.40627,-0.02954,140,153.94,85.791,13.488,NaN,14.803,1009.7,340.27,0.02182,0.090891
1.2909,31.512,52.457,42.589,52.464,42.866,0.025433,0.040734,0.048022,58.02,0.84693,4.8633,45,3.2389e-7,9.8061,1.3242,105.34,-6.9244,-0.92648,11781,2095.7,5.5834,0.036601,1826.2,1616.1,1.5009,0.1544,9584446,634.26,14.437,0.55352,0.55639,0.36341,0.067007,0.1231,0.41307,0.64555,1.0231e-4,0,0.016079,0.42301,0.40693,-0.02518,140,153.94,85.636,13.934,NaN,14.795,1009.6,340.26,0.021873,0.091344
1.3128,32.67,53.389,42.551,53.397,42.855,0.044062,0.04716,0.064541,46.946,0.95578,5.0971,45,5.6112e-7,9.8061,1.4278,107.34,-6.4086,-0.53888,11773,2088.1,5.5809,0.036595,1832.4,1615.8,1.5473,0.15715,9754090,634.18,14.97,0.55367,0.55699,0.36338,0.067075,0.12321,0.44339,0.70646,4.5128e-4,0,0.015467,0.42305,0.40758,-0.020821,140,153.94,85.494,14.376,NaN,14.788,1009.4,340.26,0.021949,0.091765
1.3347,33.852,54.323,42.54,54.333,42.873,0.065086,0.05437,0.084807,39.874,1.0702,5.3286,45,8.2886e-7,9.8061,1.5358,109.34,-5.7888,-0.16538,11766,2080.5,5.5783,0.03659,1840.1,1615.5,1.6043,0.1599,9923949,634.45,15.515,0.55382,0.55764,0.36335,0.067144,0.12332,0.47413,0.77717,1.3385e-4,0,0.014881,0.42308,0.4082,-0.016409,140,153.94,85.364,14.81,NaN,14.78,1009.3,340.26,0.022034,0.092187
1.3568,35.059,55.26,42.612,55.273,42.97,0.088639,0.062424,0.10841,35.155,1.19,5.5314,45,1.1288e-6,9.8061,1.611,111.33,-5.0644,0.1086,11758,2072.8,5.5758,0.036585,1847.5,1615.3,1.6585,0.16267,10094598,635.66,16.07,0.55397,0.55817,0.36332,0.067215,0.12344,0.4944,0.83201,-3.7487e-4,0,0.014338,0.42312,0.40878,-0.012136,140,153.94,85.249,15.231,NaN,14.772,1009.1,340.25,0.022098,0.092763
1.3789,36.291,56.202,42.694,56.217,43.07,0.11481,0.071371,0.13519,31.867,1.3138,5.6811,45,1.4621e-6,9.8061,1.6349,113.33,-4.2699,0.2731,11750,2065,5.5732,0.036579,1853.3,1615,1.7024,0.16546,10266425,636.94,16.631,0.55413,0.55845,0.36328,0.067287,0.12356,0.49908,0.85775,-4.8447e-4,0,0.013844,0.42315,0.40931,-0.0083388,140,153.94,85.151,15.632,NaN,14.764,1009,340.25,0.022121,0.093619
1.401,37.544,57.146,42.777,57.164,43.169,0.14363,0.081244,0.16502,29.495,1.4408,5.7987,45,1.8291e-6,9.8061,1.6386,115.33,-3.4218,0.40234,11742,2057.2,5.5706,0.036574,1859.4,1614.7,1.748,0.16825,10438789,638.21,17.201,0.55429,0.55863,0.36325,0.067361,0.12368,0.49735,0.87496,3.9382e-4,0,0.013379,0.42319,0.40981,-0.0051789,140,153.94,85.072,16.004,NaN,14.756,1008.8,340.24,0.022136,0.094086
1.4231,38.82,58.093,42.867,58.114,43.265,0.17514,0.092082,0.19787,27.734,1.5697,5.8546,45,2.2303e-6,9.8061,1.59,117.33,-2.5487,0.45759,11735,2049.3,5.5679,0.036568,1863.5,1614.4,1.7789,0.17106,10612058,639.48,17.775,0.55446,0.55855,0.36322,0.067436,0.1238,0.48043,0.85732,2.8014e-4,0,0.012952,0.42323,0.41027,-0.0027796,140,153.94,85.012,16.338,NaN,14.748,1008.7,340.24,0.02212,0.09453
1.4452,40.115,59.041,42.959,59.066,43.359,0.2093,0.10391,0.23368,26.402,1.6994,5.8765,45,2.6655e-6,9.8061,1.5258,119.33,-1.6689,0.49356,11727,2041.5,5.5653,0.036563,1867.5,1614.2,1.8097,0.17388,10785572,640.76,18.358,0.55462,0.5584,0.36318,0.067513,0.12393,0.45883,0.83175,-3.0184e-4,0,0.012542,0.42326,0.41072,-0.0011536,140,153.94,84.971,16.623,NaN,14.739,1008.5,340.23,0.02211,0.094977
1.4673,41.431,59.991,43.048,60.019,43.453,0.24614,0.11674,0.27243,25.375,1.8296,5.9178,45,3.1346e-6,9.8061,1.5056,121.33,-0.75673,0.54663,11719,2033.7,5.5627,0.036557,1877,1613.9,1.8796,0.17669,10958455,642.03,18.955,0.55479,0.55848,0.36314,0.067591,0.12406,0.44858,0.84341,-5.1325e-4,0,0.012122,0.4233,0.41118,-2.2969e-4,140,153.94,84.949,16.848,NaN,14.731,1008.4,340.23,0.022154,0.096903
1.4895,42.771,60.945,43.139,60.976,43.546,0.28576,0.13065,0.31421,24.569,1.9609,5.9366,45,3.6392e-6,9.8061,1.4818,123.33,0.21185,0.56161,11711,2025.9,5.5601,0.036552,1888.9,1613.6,1.9662,0.1795,11131760,643.31,19.563,0.55497,0.55854,0.36311,0.067671,0.12419,0.43646,0.85805,-4.8803e-4,0,0.011725,0.42334,0.41162,1.7443e-5,140,153.94,84.948,17.002,NaN,14.722,1008.2,340.22,0.022193,0.097846
1.5117,44.134,61.902,43.234,61.938,43.637,0.32817,0.14562,0.35903,23.928,2.0923,5.9117,45,4.1793e-6,9.8061,1.433,125.33,1.2206,0.525,11703,2018,5.5574,0.036546,1901.3,1613.3,2.0573,0.18233,11305751,644.59,20.179,0.55514,0.5585,0.36307,0.067752,0.12432,0.41696,0.85704,-2.9797e-4,0,0.011354,0.42338,0.41203,5.6123e-4,140,153.94,84.967,17.075,NaN,14.713,1008.1,340.22,0.022211,0.098312
1.5339,45.52,62.863,43.333,62.902,43.725,0.37334,0.16165,0.40683,23.412,2.2228,5.8423,45,4.7544e-6,9.8061,1.3602,127.33,2.2456,0.43405,11695,2010.2,5.5548,0.036541,1914.6,1613,2.154,0.18517,1.148e7,645.86,20.804,0.55533,0.55835,0.36303,0.067835,0.12446,0.39057,0.83977,3.367e-4,0,0.011005,0.42342,0.41242,0.0018418,140,153.94,85.006,17.052,NaN,14.704,1007.9,340.21,0.022219,0.098716
1.5561,46.927,63.826,43.437,63.869,43.812,0.42121,0.17871,0.45756,22.991,2.3513,5.715,45,5.3641e-6,9.8061,1.25,129.33,3.2606,0.31168,11688,2002.3,5.5522,0.036535,1927,1612.8,2.2447,0.18802,11655483,647.14,21.435,0.55551,0.55808,0.36299,0.06792,0.1246,0.35435,0.79171,-4.6392e-4,0,0.010681,0.42347,0.41278,0.0037666,140,153.94,85.067,16.919,NaN,14.695,1007.7,340.2,0.022205,0.099178
1.5783,48.355,64.791,43.548,64.838,43.894,0.47168,0.19676,0.51108,22.643,2.4759,5.5055,45,6.0069e-6,9.8061,1.078,131.33,4.194,0.24164,11680,1994.5,5.5495,0.036529,1933.9,1612.5,2.2961,0.19088,11831674,648.42,22.071,0.5557,0.55762,0.36295,0.068007,0.12474,0.30294,0.68985,2.3803e-4,0,0.010386,0.42351,0.41312,0.0060462,140,153.94,85.147,16.659,NaN,14.686,1007.6,340.2,0.022155,0.099643
1.6005,49.801,65.756,43.66,65.807,43.976,0.52458,0.2157,0.5672,22.352,2.5951,5.264,45,6.6805e-6,9.806,0.89565,133.33,5.0121,0.17429,11672,1986.6,5.5469,0.036524,1940.1,1612.2,2.3419,0.19375,12007825,649.69,22.719,0.55589,0.55723,0.36291,0.068095,0.12488,0.24964,0.57645,2.0193e-4,0,0.010094,0.42355,0.41346,0.0083816,140,153.94,85.244,16.253,NaN,14.676,1007.4,340.19,0.022127,0.10004
1.6226,51.267,66.722,43.77,66.777,44.057,0.57983,0.23551,0.62583,22.105,2.7089,5.0192,45,7.384e-6,9.806,0.72635,135.33,5.7107,0.0012364,11664,1978.8,5.5443,0.036518,1950.5,1611.9,2.4186,0.19661,12183684,650.97,23.381,0.55608,0.55697,0.36287,0.068184,0.12503,0.20008,0.47363,-3.038e-4,0,0.0097999,0.4236,0.4138,0.010567,140,153.94,85.353,15.683,NaN,14.667,1007.2,340.19,0.022133,0.10044
1.6447,52.754,67.691,43.88,67.75,44.137,0.63741,0.25612,0.68694,21.891,2.817,4.7551,45,8.1174e-6,9.806,0.54984,137.34,6.2775,-0.20137,11656,1971,5.5416,0.036513,1961.6,1611.6,2.4998,0.19948,1.236e7,652.24,24.056,0.55628,0.55679,0.36283,0.068275,0.12517,0.1496,0.36202,2.7621e-5,0,0.0095184,0.42364,0.41412,0.012404,140,153.94,85.472,14.934,NaN,14.657,1007.1,340.18,0.022137,0.10083
1.6669,54.264,68.663,43.987,68.725,44.216,0.69722,0.27745,0.7504,21.7,2.9191,4.494,45,8.8791e-6,9.806,0.38156,139.33,6.6815,-0.63387,11648,1963.1,5.539,0.036507,1980.9,1611.4,2.6397,0.20235,12536252,653.52,24.747,0.55648,0.55673,0.36279,0.068367,0.12532,0.10183,0.25505,2.128e-4,0,0.0092425,0.42369,0.41444,0.013656,140,153.94,85.596,13.996,NaN,14.647,1006.9,340.18,0.022156,0.1012
1.689,55.796,69.637,44.093,69.703,44.296,0.7592,0.29942,0.81611,21.524,3.0155,4.2356,45,9.6684e-6,9.806,0.21671,141.33,6.8224,-1.5659,11641,1955.3,5.5363,0.036502,2016.5,1611.1,2.8961,0.20523,12712954,654.79,25.453,0.55668,0.55676,0.36275,0.068461,0.12548,0.055977,0.14814,3.4278e-4,0,0.0089788,0.42373,0.41476,0.013842,140,153.94,85.722,12.862,NaN,14.637,1006.7,340.17,0.022172,0.10157
1.7112,57.351,70.615,44.206,70.684,44.385,0.82324,0.32191,0.88394,21.357,3.1059,3.9807,45,1.0484e-5,9.806,0.057252,143.33,4.5948,-5.4541,11633,1947.5,5.5337,0.036496,2062.3,1610.8,3.2252,0.20812,1.289e7,656.19,26.177,0.55689,0.5569,0.3627,0.068557,0.12563,0.014209,0.03991,0.0081499,0,0.0087319,0.42378,0.41505,0.0061057,140,153.94,85.845,11.54,NaN,14.627,1006.5,340.16,0.022171,0.10192
1.7334,58.927,71.596,44.422,71.667,44.579,0.88919,0.34478,0.9537,21.193,3.1901,3.7356,45,1.1324e-5,9.806,0.13899,145.34,-6.9924,-1.1219,11625,1939.5,5.531,0.036491,1924.6,1610.5,2.2433,0.21102,13067998,658.79,26.918,0.5571,0.55714,0.36266,0.068654,0.12579,0.038859,0.10062,3.3834e-4,0,0.0084968,0.42383,0.41533,-0.013755,140,153.94,85.961,10.046,NaN,14.617,1006.3,340.16,0.022163,0.10229
1.7555,60.525,72.58,44.662,72.654,44.801,0.95694,0.36789,1.0252,21.029,3.2684,3.5311,45,1.2187e-5,9.806,0.295,147.34,-6.8297,0.04632,11617,1931.4,5.5283,0.036485,1964.9,1610.2,2.5334,0.21393,13246290,661.72,27.676,0.55732,0.55747,0.36261,0.068754,0.12595,0.079767,0.21503,-3.5164e-4,0,0.0082743,0.42388,0.4156,-0.012768,140,153.94,86.066,8.4188,NaN,14.607,1006.2,340.15,0.022145,0.109
1.7777,62.143,73.569,44.896,73.645,45.024,1.0264,0.39112,1.0984,20.861,3.3417,3.3919,45,1.3071e-5,9.806,0.42581,149.34,-6.404,0.20815,11608,1923.1,5.5255,0.036479,1969.2,1609.9,2.5661,0.21685,13424862,664.64,28.45,0.55754,0.55785,0.36257,0.068855,0.12611,0.11495,0.30548,-4.6337e-4,0,0.0080597,0.42393,0.41587,-0.010926,140,153.94,86.157,6.7128,NaN,14.596,1006,340.14,0.022128,0.10955
1.7998,63.782,74.563,45.127,74.641,45.247,1.0974,0.41432,1.173,20.684,3.4108,3.2986,45,1.3975e-5,9.806,0.54102,151.34,-5.8188,0.36901,11600,1914.9,5.5227,0.036474,1974,1609.6,2.603,0.21977,13604120,667.56,29.239,0.55776,0.55826,0.36252,0.068958,0.12628,0.14571,0.38835,-4.8793e-4,0,0.0078603,0.42398,0.41612,-0.0087825,140,153.94,86.231,4.9962,NaN,14.585,1005.8,340.14,0.02209,0.11025
1.8219,65.44,75.56,45.356,75.64,45.469,1.1699,0.43736,1.249,20.498,3.476,3.2006,45,1.4898e-5,9.806,0.65918,153.35,-5.0178,0.84682,11592,1906.6,5.5199,0.036468,1993.6,1609.3,2.745,0.22272,13784646,670.47,30.048,0.55799,0.55872,0.36247,0.069063,0.12645,0.17491,0.48636,-2.9146e-4,0,0.0076871,0.42403,0.41634,-0.0063594,140,153.94,86.286,3.3508,NaN,14.575,1005.6,340.13,0.021994,0.11075
1.8439,67.113,76.557,45.58,76.639,45.688,1.2436,0.46006,1.326,20.302,3.5374,3.1473,45,1.5837e-5,9.806,0.75372,155.35,-4.0249,1.169,11584,1898.4,5.5171,0.036462,2008.3,1609,2.8518,0.22567,13965194,673.37,30.868,0.55822,0.55917,0.36243,0.06917,0.12662,0.19783,0.56814,-4.0872e-4,0,0.0075137,0.42408,0.41657,-0.0039855,140,153.94,86.322,1.8681,NaN,14.564,1005.4,340.12,0.021918,0.11152
1.8658,68.802,77.556,45.796,77.64,45.908,1.3185,0.48235,1.404,20.094,3.5968,3.2005,45,1.6791e-5,9.806,0.79355,157.35,-2.9754,1.1815,11575,1890.2,5.5143,0.036456,2007.8,1608.7,2.8507,0.22861,14144905,676.27,31.69,0.55845,0.55951,0.36238,0.069278,0.12679,0.20852,0.59699,-7.4812e-4,0,0.0073212,0.42414,0.41682,-0.0021226,140,153.94,86.34,0.63157,NaN,14.553,1005.2,340.12,0.021921,0.11342
1.8877,70.513,78.56,46.009,78.645,46.128,1.395,0.50423,1.4833,19.873,3.6566,3.3075,45,1.7765e-5,9.806,0.80113,159.35,-1.906,1.1306,11567,1882,5.5115,0.03645,2003,1608.4,2.8185,0.23156,14325052,679.16,32.52,0.55869,0.55977,0.36233,0.069387,0.12697,0.21142,0.5972,3.3063e-5,0,0.0071392,0.42419,0.41705,-8.4896e-4,140,153.94,86.34,-0.29422,NaN,14.542,1005,340.11,0.021912,0.11406
1.9096,72.245,79.568,46.221,79.655,46.346,1.4729,0.52563,1.5639,19.64,3.718,3.3993,45,1.8757e-5,9.806,0.79603,161.36,-0.7847,1.1308,11559,1873.8,5.5087,0.036445,2004.7,1608.1,2.8332,0.23452,14506344,682.05,33.366,0.55893,0.56,0.36228,0.069499,0.12715,0.20978,0.59399,-6.3709e-4,0,0.0069805,0.42425,0.41726,-1.4029e-4,140,153.94,86.328,-0.86254,NaN,14.53,1004.8,340.1,0.021848,0.11448
1.9315,73.995,80.578,46.433,80.667,46.561,1.5521,0.54645,1.6455,19.396,3.7806,3.4576,45,1.9766e-5,9.806,0.7766,163.36,0.40263,1.1402,11551,1865.6,5.506,0.036439,2014.3,1607.8,2.9037,0.2375,14688414,684.93,34.224,0.55917,0.56019,0.36223,0.069613,0.12733,0.20298,0.58888,6.0039e-5,0,0.0068331,0.4243,0.41747,3.6015e-5,140,153.94,86.306,-1.0464,NaN,14.519,1004.6,340.1,0.021764,0.11487
1.9533,75.759,81.588,46.642,81.679,46.774,1.6326,0.56669,1.7281,19.143,3.8449,3.5164,45,2.0791e-5,9.806,0.73216,165.36,1.5842,1.0986,11543,1857.5,5.5032,0.036433,2023.7,1607.5,2.9731,0.24049,14870555,687.8,35.09,0.55942,0.56033,0.36217,0.069729,0.12752,0.18976,0.56396,-1.5854e-4,0,0.0066852,0.42436,0.41767,5.4381e-4,140,153.94,86.276,-0.83837,NaN,14.508,1004.4,340.09,0.021698,0.11525
1.975,77.541,82.6,46.849,82.693,46.985,1.7144,0.58637,1.8119,18.882,3.9116,3.5765,45,2.1832e-5,9.806,0.66386,167.37,2.7136,1.0114,11535,1849.3,5.5004,0.036427,2032.6,1607.2,3.0388,0.24347,15052880,690.66,35.966,0.55967,0.56042,0.36212,0.069847,0.12771,0.17064,0.51715,-5.1974e-5,0,0.0065391,0.42442,0.41788,0.0015568,140,153.94,86.241,-0.25055,NaN,14.496,1004.2,340.08,0.021643,0.11564
1.9966,79.339,83.614,47.054,83.709,47.195,1.7976,0.60557,1.8969,18.618,3.9812,3.6362,45,2.2892e-5,9.806,0.57484,169.37,3.7498,0.87478,11526,1841.3,5.4977,0.036422,2041.6,1606.9,3.1047,0.24647,15235516,693.51,36.852,0.55993,0.56049,0.36207,0.069966,0.1279,0.1465,0.45148,-4.9375e-5,0,0.0063966,0.42447,0.41808,0.0029011,140,153.94,86.202,0.68773,NaN,14.484,1003.9,340.08,0.021592,0.11601
2.0182,81.156,84.63,47.257,84.727,47.403,1.8823,0.62438,1.9831,18.351,4.0542,3.7201,45,2.3971e-5,9.8059,0.46495,171.37,4.6216,0.81761,11518,1833.2,5.4949,0.036416,2045.9,1606.6,3.1377,0.24946,15418202,696.36,37.75,0.56019,0.56056,0.36201,0.070087,0.12809,0.1179,0.36546,-1.5887e-4,0,0.0062528,0.42453,0.41828,0.004302,140,153.94,86.161,1.9319,NaN,14.472,1003.7,340.07,0.021563,0.11639
2.0398,82.992,85.649,47.457,85.748,47.61,1.9686,0.6429,2.0709,18.086,4.1311,3.813,45,2.5069e-5,9.8059,0.34255,173.38,5.2973,0.84601,11510,1825.1,5.4922,0.03641,2047.3,1606.3,3.1501,0.25247,15601341,699.21,38.663,0.56046,0.56066,0.36196,0.07021,0.12829,0.086607,0.26687,1.5502e-4,0,0.0061151,0.42459,0.41848,0.0055184,140,153.94,86.12,3.4259,NaN,14.461,1003.5,340.06,0.021528,0.1168
2.0613,84.847,86.67,47.66,86.772,47.815,2.0565,0.66127,2.1602,17.826,4.2113,3.842,45,2.6189e-5,9.8059,0.22002,175.38,5.8357,-0.097191,11502,1817.1,5.4894,0.036405,2069.1,1606,3.3074,0.25549,15785807,702.04,39.597,0.56073,0.56081,0.3619,0.070336,0.12849,0.054564,0.17413,-2.2743e-4,0,0.0060013,0.42466,0.41865,0.0065396,140,153.94,86.08,5.1035,NaN,14.448,1003.3,340.05,0.021421,0.11719
2.0827,86.714,87.691,47.865,87.796,48.016,2.1457,0.67956,2.2507,17.574,4.2921,3.805,45,2.7325e-5,9.8059,0.13215,177.39,4.6233,-4.0022,11494,1809,5.4867,0.036399,1981.1,1605.7,2.6816,0.25853,15970892,704.87,40.552,0.561,0.56103,0.36185,0.070464,0.12869,0.035218,0.090134,0.0026402,0,0.0058912,0.42472,0.41883,0.0040089,140,153.94,86.042,6.8885,NaN,14.436,1003.1,340.05,0.021313,0.11756
2.104,88.594,88.711,47.98,88.818,48.13,2.2362,0.69791,2.3425,17.333,4.3723,3.7896,45,2.8477e-5,9.8059,0.1406,179.39,-1.2379,-6.0526,11486,1801.1,5.4839,0.036394,1821.2,1605.4,1.5409,0.26156,16155350,706.68,41.519,0.56128,0.56131,0.36179,0.070593,0.12889,0.043485,0.067708,0.0066807,0,0.0057656,0.42478,0.41902,-2.808e-4,140,153.94,86.005,8.7052,NaN,14.424,1002.9,340.04,0.021277,0.11793
2.1253,90.492,89.731,47.88,89.842,48.047,2.3282,0.71654,2.436,17.107,4.4552,3.995,45,2.9649e-5,9.8059,0.18735,181.39,-5.227,-3.0325,11478,1793,5.4812,0.036388,1981.1,1605.1,2.6856,0.26456,16338050,706.2,42.491,0.56155,0.56161,0.36173,0.070723,0.1291,0.049988,0.13912,0.0021048,0,0.0056107,0.42484,0.41923,-0.0048935,140,153.94,85.969,10.499,NaN,14.412,1002.6,340.03,0.021372,0.11832
2.1467,92.421,90.754,47.773,90.868,47.955,2.4224,0.73573,2.5317,16.895,4.5421,4.1654,45,3.0849e-5,9.8059,0.28676,183.38,-5.5392,-0.89862,11470,1784.8,5.4784,0.036382,2058.9,1604.8,3.2435,0.26757,16521151,705.62,43.482,0.56184,0.56198,0.36167,0.070855,0.12931,0.071818,0.23849,5.6337e-4,0,0.0054607,0.42491,0.41945,-0.005373,140,153.94,85.936,12.209,NaN,14.399,1002.4,340.02,0.02147,0.11868
2.1681,94.38,91.78,47.668,91.897,47.861,2.5189,0.75563,2.6298,16.699,4.6318,4.291,45,3.2077e-5,9.8059,0.38499,185.38,-4.9195,-0.13121,11462,1776.6,5.4756,0.036376,2069,1604.5,3.3174,0.2706,16705034,705.04,44.492,0.56212,0.56238,0.36161,0.070989,0.12952,0.095803,0.32207,7.2121e-5,0,0.0053215,0.42497,0.41965,-0.0041439,140,153.94,85.909,13.757,NaN,14.387,1002.2,340.02,0.021543,0.11905
2.1897,96.369,92.806,47.563,92.926,47.766,2.6175,0.77636,2.7302,16.521,4.7234,4.3927,45,3.3333e-5,9.8059,0.4643,187.37,-4.0126,0.28201,11454,1768.3,5.4727,0.03637,2068.3,1604.2,3.3148,0.27363,16889143,704.45,45.516,0.56241,0.56278,0.36155,0.071125,0.12973,0.11576,0.38649,2.7732e-4,0,0.0051833,0.42504,0.41986,-0.0026963,140,153.94,85.889,15.081,NaN,14.374,1001.9,340.01,0.021632,0.11943
2.2113,98.387,93.835,47.461,93.958,47.668,2.7183,0.79805,2.8331,16.361,4.8161,4.4374,45,3.4618e-5,9.8059,0.52029,189.37,-2.9344,0.43689,11445,1760,5.4699,0.036365,2065.9,1603.9,3.2998,0.27667,17073892,703.86,46.555,0.56271,0.56317,0.36149,0.071263,0.12995,0.1301,0.43066,4.6537e-4,0,0.0050541,0.42511,0.42005,-0.0014105,140,153.94,85.879,16.127,NaN,14.36,1001.7,340,0.021701,0.1353
2.233,100.43,94.865,47.362,94.992,47.568,2.8214,0.82079,2.9383,16.221,4.9083,4.4217,45,3.593e-5,9.8059,0.55166,191.37,-1.7456,0.46314,11437,1751.7,5.467,0.036359,2064.8,1603.6,3.2941,0.27972,17259080,703.28,47.606,0.56301,0.56353,0.36143,0.071403,0.13017,0.13816,0.45549,2.3236e-4,0,0.0049274,0.42517,0.42025,-4.8832e-4,140,153.94,85.878,16.847,NaN,14.347,1001.5,339.99,0.021778,0.1359
2.2548,102.51,95.896,47.262,96.026,47.465,2.9266,0.84465,3.046,16.099,4.9997,4.3859,45,3.727e-5,9.8059,0.55544,193.36,-0.47816,0.48947,11429,1743.3,5.4641,0.036353,2062.9,1603.3,3.2829,0.28277,17444232,702.68,48.666,0.56331,0.56384,0.36137,0.071546,0.13039,0.13935,0.45756,-2.0368e-4,0,0.0047968,0.42524,0.42045,-3.5857e-5,140,153.94,85.884,17.204,NaN,14.334,1001.2,339.99,0.021893,0.13651
2.2767,104.62,96.93,47.159,97.064,47.362,3.0342,0.86971,3.1564,15.994,5.0911,4.372,45,3.864e-5,9.8059,0.52678,195.35,0.81395,0.47415,11420,1734.9,5.4612,0.036347,2054.8,1603,3.2274,0.28582,17629158,702.09,49.732,0.56362,0.56409,0.36131,0.07169,0.13062,0.13299,0.4292,-3.6253e-4,0,0.0046615,0.42531,0.42065,1.017e-4,140,153.94,85.895,17.175,NaN,14.32,1001,339.98,0.022052,0.13709
2.2987,106.77,97.97,47.056,98.107,47.255,3.1444,0.89603,3.2695,15.906,5.1832,4.3327,45,4.0043e-5,9.8059,0.47195,197.35,2.0217,0.33777,11412,1726.5,5.4583,0.036341,2041.8,1602.6,3.1371,0.28889,17814927,701.49,50.811,0.56393,0.56431,0.36124,0.071836,0.13085,0.12034,0.37679,-3.1115e-4,0,0.0045358,0.42538,0.42085,6.1421e-4,140,153.94,85.909,16.761,NaN,14.306,1000.7,339.97,0.022186,0.13759
2.3209,108.96,99.014,46.956,99.154,47.145,3.2571,0.92354,3.3855,15.831,5.275,4.2153,45,4.1478e-5,9.8059,0.39878,199.34,3.0611,0.27017,11403,1718,5.4554,0.036335,2038.4,1602.3,3.1146,0.29198,18002056,700.89,51.91,0.56424,0.56452,0.36118,0.071986,0.13108,0.10188,0.31611,-9.588e-5,0,0.0044265,0.42546,0.42103,0.0013785,140,153.94,85.924,15.986,NaN,14.292,1000.5,339.96,0.022257,0.13868
2.3432,111.17,100.06,46.854,100.2,47.033,3.372,0.9521,3.5038,15.767,5.3656,4.0976,45,4.2942e-5,9.8059,0.30855,201.34,3.9168,0.218,11395,1709.4,5.4524,0.036329,2037.2,1602,3.1083,0.29508,18189313,700.28,53.023,0.56457,0.56473,0.36111,0.072137,0.13132,0.078808,0.24283,3.3917e-4,0,0.0043156,0.42553,0.42121,0.0022099,140,153.94,85.934,14.895,NaN,14.277,1000.2,339.95,0.022355,0.13921
2.3655,113.42,101.11,46.745,101.25,46.921,3.4893,0.9816,3.6247,15.712,5.4558,4.0585,45,4.4436e-5,9.8059,0.19982,203.33,4.5327,-0.28182,11386,1700.8,5.4495,0.036323,2014.8,1601.7,2.9506,0.29817,18376298,699.67,54.147,0.56489,0.56496,0.36104,0.07229,0.13156,0.051918,0.14985,-1.7725e-4,0,0.0041969,0.4256,0.42141,0.0028987,140,153.94,85.937,13.553,NaN,14.263,999.95,339.94,0.022515,0.13987
2.388,115.71,102.16,46.629,102.31,46.809,3.6094,1.012,3.7486,15.663,5.5473,4.0955,45,4.5965e-5,9.8058,0.087557,205.33,4.3315,-2.196,11377,1692.2,5.4465,0.036317,1910.7,1601.3,2.21,0.30127,18563828,699.06,55.292,0.56522,0.56523,0.36098,0.072446,0.1318,0.024886,0.05252,4.5169e-4,0,0.0040837,0.42568,0.42159,0.002593,140,153.94,85.929,12.057,NaN,14.248,999.68,339.93,0.022667,0.14039
2.4107,118.04,103.21,46.511,103.37,46.696,3.7323,1.0432,3.8753,15.616,5.6411,4.1591,45,4.753e-5,9.8058,0.066418,207.32,-3.1534,-3.7344,11369,1683.5,5.4435,0.036311,2019.1,1601,2.9864,0.30439,18752212,698.45,56.461,0.56556,0.56556,0.36091,0.072605,0.13205,0.017166,0.052505,0.0021583,0,0.0039792,0.42575,0.42178,-0.0013463,140,153.94,85.911,10.518,NaN,14.233,999.41,339.92,0.022791,0.1412
2.4335,120.4,104.27,46.388,104.43,46.583,3.858,1.0748,4.0049,15.568,5.7362,4.2544,45,4.9131e-5,9.8058,0.16178,209.31,-4.3904,-1.3807,11360,1674.8,5.4405,0.036305,2068,1600.7,3.3377,0.30752,18941208,697.83,57.651,0.5659,0.56594,0.36084,0.072766,0.13229,0.040239,0.13723,-9.0788e-5,0,0.0038784,0.42583,0.42195,-0.002557,140,153.94,85.885,9.0426,NaN,14.217,999.13,339.91,0.022912,0.14173
2.4564,122.8,105.34,46.261,105.5,46.47,3.9866,1.1069,4.1374,15.518,5.8334,4.3949,45,5.0769e-5,9.8058,0.25617,211.31,-3.9599,-0.65504,11351,1666,5.4374,0.036299,2042.2,1600.4,3.1561,0.31067,19130570,697.21,58.861,0.56624,0.56636,0.36077,0.072929,0.13255,0.065168,0.20784,-1.0609e-4,0,0.0037785,0.42591,0.42213,-0.0020384,140,153.94,85.854,7.7354,NaN,14.202,998.85,339.91,0.023047,0.14221
2.4795,125.24,106.4,46.172,106.57,46.397,4.1183,1.1392,4.2729,15.462,5.9334,4.5584,45,5.2446e-5,9.8058,0.33506,213.3,-3.1576,-0.3187,11342,1657.2,5.4344,0.036292,2022,1600,3.0144,0.31381,1.932e7,697.06,60.089,0.56659,0.56679,0.36069,0.073095,0.1328,0.086792,0.26243,1.2327e-4,0,0.0036803,0.42599,0.42231,-0.0012703,140,153.94,85.822,6.6769,NaN,14.186,998.56,339.9,0.023192,0.14268
2.5027,127.72,107.47,46.449,107.64,46.688,4.2532,1.1716,4.4116,15.4,6.0363,4.7187,45,5.4165e-5,9.8058,0.38646,215.3,-2.1449,-0.087119,11333,1648.2,5.4312,0.036286,2000.9,1599.7,2.8656,0.31698,19510979,701.04,61.335,0.56695,0.56721,0.36062,0.073264,0.13306,0.102,0.29302,-3.8572e-4,0,0.0035897,0.42607,0.42248,-5.7449e-4,140,153.94,85.794,5.9195,NaN,14.17,998.27,339.89,0.023308,0.14321
2.526,130.24,108.55,46.82,108.73,47.06,4.3914,1.2039,4.5535,15.331,6.1408,4.7441,45,5.5924e-5,9.8058,0.38576,217.3,-1.0674,0.18607,11324,1638.9,5.428,0.03628,1958.2,1599.3,2.5638,0.3202,19704740,705.98,62.609,0.56731,0.56757,0.36055,0.073437,0.13333,0.10566,0.27124,3.42e-4,0,0.0035303,0.42615,0.42262,-1.3944e-4,140,153.94,85.774,5.4851,NaN,14.153,997.98,339.88,0.023228,0.14374
2.5492,132.77,109.64,47.191,109.82,47.426,4.5317,1.2359,4.6972,15.255,6.2445,4.7191,45,5.771e-5,9.8058,0.36327,219.31,-0.056571,0.27669,11315,1629.5,5.4248,0.036273,1916.9,1599,2.271,0.32343,19899290,710.89,63.899,0.56768,0.56791,0.36047,0.073614,0.1336,0.10325,0.23426,8.6024e-6,0,0.0034747,0.42624,0.42276,-3.839e-7,140,153.94,85.764,5.3597,NaN,14.137,997.68,339.87,0.023133,0.1442
2.5723,135.32,110.73,47.555,110.91,47.79,4.6738,1.2675,4.8427,15.174,6.348,4.7356,45,5.9521e-5,9.8058,0.33837,221.31,0.83011,0.24759,11305,1620.1,5.4215,0.036266,1898.7,1598.6,2.1438,0.32667,20093570,715.79,65.203,0.56806,0.56826,0.36039,0.073792,0.13387,0.097777,0.20956,2.4723e-4,0,0.0034107,0.42632,0.42291,8.1038e-5,140,153.94,85.762,5.505,NaN,14.12,997.38,339.86,0.023106,0.14562
2.5954,137.89,111.83,47.921,112.02,48.151,4.8184,1.2989,4.9904,15.086,6.452,4.7069,45,6.1361e-5,9.8058,0.29601,223.31,1.6119,0.15128,11296,1610.8,5.4182,0.03626,1881.9,1598.2,2.0263,0.32992,20289005,720.68,66.526,0.56844,0.56859,0.36032,0.073974,0.13415,0.086856,0.17552,-6.738e-5,0,0.0033543,0.42641,0.42306,2.9959e-4,140,153.94,85.769,5.8828,NaN,14.104,997.08,339.85,0.023036,0.14717
2.6185,140.48,112.93,48.292,113.12,48.507,4.9649,1.3299,5.14,14.995,6.5548,4.5601,45,6.3228e-5,9.8058,0.22812,225.32,2.2147,-0.20793,11287,1601.5,5.415,0.036253,1848.9,1597.9,1.7926,0.3332,20485894,725.55,67.873,0.56883,0.56892,0.36024,0.07416,0.13443,0.069037,0.12312,-3.2197e-4,0,0.0033089,0.4265,0.42319,5.5452e-4,140,153.94,85.785,6.4471,NaN,14.087,996.77,339.84,0.022898,0.14771
2.6414,143.08,114.04,48.662,114.23,48.857,5.113,1.3607,5.291,14.902,6.654,4.3535,45,6.5114e-5,9.8058,0.15557,227.33,2.4298,-0.969,11277,1592.2,5.4118,0.036247,1818.9,1597.5,1.5811,0.33648,20683146,730.4,69.239,0.56922,0.56927,0.36016,0.074348,0.13472,0.048452,0.076012,-1.841e-4,0,0.0032607,0.42659,0.42333,6.5455e-4,140,153.94,85.809,7.1384,NaN,14.07,996.47,339.83,0.022788,0.14819
2.6642,145.69,115.15,49.033,115.35,49.204,5.2626,1.3913,5.4434,14.809,6.7487,4.0988,45,6.7019e-5,9.8058,0.1077,229.34,1.3441,-2.4857,11268,1583,5.4085,0.03624,1905.3,1597.2,2.201,0.33978,20881146,735.21,70.629,0.56962,0.56964,0.36008,0.074539,0.13501,0.03085,0.06757,4.2996e-4,0,0.0032153,0.42668,0.42346,1.9642e-4,140,153.94,85.837,7.9032,NaN,14.053,996.16,339.82,0.022665,0.14867
2.6868,148.32,116.26,49.396,116.46,49.549,5.4135,1.4219,5.5972,14.717,6.8386,3.899,45,6.8941e-5,9.8057,0.13846,231.34,-0.75459,-2.739,11259,1573.8,5.4053,0.036234,2076.1,1596.8,3.4232,0.34309,2.108e7,740.01,72.042,0.57003,0.57006,0.35999,0.074733,0.1353,0.034282,0.11784,3.198e-4,0,0.003168,0.42677,0.4236,-6.0725e-5,140,153.94,85.865,8.7099,NaN,14.036,995.86,339.8,0.022565,0.14914
2.7094,150.95,117.37,49.754,117.58,49.893,5.5657,1.4527,5.7522,14.628,6.9239,3.7217,45,7.0879e-5,9.8057,0.19382,233.35,-1.2999,-2.2462,11250,1564.7,5.4021,0.036227,2015.5,1596.5,2.9931,0.3464,21278168,744.79,73.474,0.57044,0.57051,0.35991,0.07493,0.1356,0.050483,0.15114,4.9397e-4,0,0.0031139,0.42686,0.42375,-1.7678e-4,140,153.94,85.886,9.5138,NaN,14.019,995.55,339.79,0.022524,0.14962
2.7319,153.61,118.49,50.106,118.7,50.238,5.7195,1.4837,5.9088,14.543,7.0062,3.6287,45,7.2838e-5,9.8057,0.23168,235.35,-1.2182,-1.8751,11241,1555.6,5.3989,0.036221,1941.4,1596.1,2.4663,0.34972,21477117,749.56,74.925,0.57086,0.57095,0.35983,0.075129,0.1359,0.06439,0.15932,-5.431e-5,0,0.0030595,0.42696,0.4239,-1.5233e-4,140,153.94,85.898,10.257,NaN,14.002,995.23,339.78,0.022494,0.15007
2.7544,156.29,119.62,50.452,119.83,50.581,5.8749,1.5152,6.0671,14.463,7.0867,3.6058,45,7.4816e-5,9.8057,0.25739,237.36,-0.91439,-1.6301,11232,1546.5,5.3958,0.036214,1885.6,1595.8,2.0703,0.35306,21676942,754.33,76.397,0.57128,0.57139,0.35974,0.075332,0.1362,0.07534,0.15642,4.1801e-4,0,0.0030073,0.42705,0.42405,-8.4217e-5,140,153.94,85.9,10.902,NaN,13.984,994.92,339.77,0.022456,0.15054
